{
  "type": "FeatureCollection",
  "features": [
    {"type": "Feature", "geometry": {"type": "Point", "coordinates": [74.56, 34.36]}, "properties": {"name": "Wular Lake", "state": "Jammu & Kashmir", "type": "Freshwater"}},
    {"type": "Feature", "geometry": {"type": "Point", "coordinates": [74.85, 34.11]}, "properties": {"name": "Dal Lake", "state": "Jammu & Kashmir", "type": "Freshwater"}},
    {"type": "Feature", "geometry": {"type": "Point", "coordinates": [78.92, 33.75]}, "properties": {"name": "Pangong Tso", "state": "Ladakh", "type": "Saline"}},
    {"type": "Feature", "geometry": {"type": "Point", "coordinates": [85.33, 19.73]}, "properties": {"name": "Chilika Lake", "state": "Odisha", "type": "Brackish"}},
    {"type": "Feature", "geometry": {"type": "Point", "coordinates": [76.40, 9.59]}, "properties": {"name": "Vembanad Lake", "state": "Kerala", "type": "Brackish"}},
    {"type": "Feature", "geometry": {"type": "Point", "coordinates": [75.05, 26.91]}, "properties": {"name": "Sambhar Lake", "state": "Rajasthan", "type": "Saline"}},
    {"type": "Feature", "geometry": {"type": "Point", "coordinates": [93.79, 24.54]}, "properties": {"name": "Loktak Lake", "state": "Manipur", "type": "Freshwater"}},
    {"type": "Feature", "geometry": {"type": "Point", "coordinates": [81.18, 16.63]}, "properties": {"name": "Kolleru Lake", "state": "Andhra Pradesh", "type": "Freshwater"}},
    {"type": "Feature", "geometry": {"type": "Point", "coordinates": [80.18, 13.54]}, "properties": {"name": "Pulicat Lake", "state": "Andhra Pradesh/TN", "type": "Brackish"}},
    {"type": "Feature", "geometry": {"type": "Point", "coordinates": [76.51, 19.97]}, "properties": {"name": "Lonar Lake", "state": "Maharashtra", "type": "Crater/Saline"}},
    {"type": "Feature", "geometry": {"type": "Point", "coordinates": [77.41, 23.25]}, "properties": {"name": "Bhojtal (Upper Lake)", "state": "Madhya Pradesh", "type": "Freshwater"}},
    {"type": "Feature", "geometry": {"type": "Point", "coordinates": [83.02, 24.23]}, "properties": {"name": "Govind Ballabh Pant Sagar", "state": "Uttar Pradesh", "type": "Artificial"}},
    {"type": "Feature", "geometry": {"type": "Point", "coordinates": [76.53, 31.41]}, "properties": {"name": "Gobind Sagar", "state": "Himachal Pradesh", "type": "Artificial"}},
    {"type": "Feature", "geometry": {"type": "Point", "coordinates": [78.47, 17.37]}, "properties": {"name": "Hussain Sagar", "state": "Telangana", "type": "Artificial"}},
    {"type": "Feature", "geometry": {"type": "Point", "coordinates": [79.44, 29.39]}, "properties": {"name": "Nainital Lake", "state": "Uttarakhand", "type": "Freshwater"}},
    {"type": "Feature", "geometry": {"type": "Point", "coordinates": [73.68, 24.57]}, "properties": {"name": "Lake Pichola", "state": "Rajasthan", "type": "Freshwater"}},
    {"type": "Feature", "geometry": {"type": "Point", "coordinates": [78.33, 32.97]}, "properties": {"name": "Tso Moriri", "state": "Ladakh", "type": "Brackish"}},
    {"type": "Feature", "geometry": {"type": "Point", "coordinates": [88.37, 27.37]}, "properties": {"name": "Tsomgo Lake", "state": "Sikkim", "type": "Glacial"}},
    {"type": "Feature", "geometry": {"type": "Point", "coordinates": [79.28, 17.05]}, "properties": {"name": "Nagarjuna Sagar", "state": "Telangana/AP", "type": "Artificial"}},
    {"type": "Feature", "geometry": {"type": "Point", "coordinates": [73.68, 24.60]}, "properties": {"name": "Fateh Sagar Lake", "state": "Rajasthan", "type": "Artificial"}},
    {"type": "Feature", "geometry": {"type": "Point", "coordinates": [74.79, 34.25]}, "properties": {"name": "Manasbal Lake", "state": "Jammu & Kashmir", "type": "Freshwater"}},
    {"type": "Feature", "geometry": {"type": "Point", "coordinates": [77.30, 28.41]}, "properties": {"name": "Badkhal Lake", "state": "Haryana", "type": "Natural"}},
    {"type": "Feature", "geometry": {"type": "Point", "coordinates": [76.77, 30.74]}, "properties": {"name": "Sukhna Lake", "state": "Chandigarh", "type": "Artificial"}},
    {"type": "Feature", "geometry": {"type": "Point", "coordinates": [79.55, 29.34]}, "properties": {"name": "Bhimtal Lake", "state": "Uttarakhand", "type": "Freshwater"}},
    {"type": "Feature", "geometry": {"type": "Point", "coordinates": [77.59, 13.04]}, "properties": {"name": "Hebbal Lake", "state": "Karnataka", "type": "Freshwater"}},
    {"type": "Feature", "geometry": {"type": "Point", "coordinates": [72.58, 23.00]}, "properties": {"name": "Kankaria Lake", "state": "Gujarat", "type": "Artificial"}},
    {"type": "Feature", "geometry": {"type": "Point", "coordinates": [76.80, 29.98]}, "properties": {"name": "Brahma Sarovar", "state": "Haryana", "type": "Artificial"}},
    {"type": "Feature", "geometry": {"type": "Point", "coordinates": [77.42, 30.61]}, "properties": {"name": "Renuka Lake", "state": "Himachal Pradesh", "type": "Freshwater"}},
    {"type": "Feature", "geometry": {"type": "Point", "coordinates": [72.79, 19.12]}, "properties": {"name": "Powai Lake", "state": "Maharashtra", "type": "Artificial"}},
    {"type": "Feature", "geometry": {"type": "Point", "coordinates": [88.60, 27.99]}, "properties": {"name": "Gurudongmar Lake", "state": "Sikkim", "type": "Glacial"}},
    {"type": "Feature", "geometry": {"type": "Point", "coordinates": [74.87, 34.14]}, "properties": {"name": "Nigeen Lake", "state": "Jammu & Kashmir", "type": "Freshwater"}},
    {"type": "Feature", "geometry": {"type": "Point", "coordinates": [91.89, 25.64]}, "properties": {"name": "Umiam Lake", "state": "Meghalaya", "type": "Artificial"}},
    {"type": "Feature", "geometry": {"type": "Point", "coordinates": [91.66, 26.12]}, "properties": {"name": "Deepor Beel", "state": "Assam", "type": "Freshwater"}},
    {"type": "Feature", "geometry": {"type": "Point", "coordinates": [76.58, 8.95]}, "properties": {"name": "Ashtamudi Lake", "state": "Kerala", "type": "Brackish"}},
    {"type": "Feature", "geometry": {"type": "Point", "coordinates": [76.68, 9.03]}, "properties": {"name": "Sasthamkotta Lake", "state": "Kerala", "type": "Freshwater"}},
    {"type": "Feature", "geometry": {"type": "Point", "coordinates": [73.71, 24.26]}, "properties": {"name": "Jaisamand Lake", "state": "Rajasthan", "type": "Artificial"}},
    {"type": "Feature", "geometry": {"type": "Point", "coordinates": [77.21, 28.50]}, "properties": {"name": "Sanjay Lake", "state": "Delhi", "type": "Artificial"}},
    {"type": "Feature", "geometry": {"type": "Point", "coordinates": [80.06, 12.92]}, "properties": {"name": "Chembarambakkam Lake", "state": "Tamil Nadu", "type": "Artificial"}},
    {"type": "Feature", "geometry": {"type": "Point", "coordinates": [76.73, 12.29]}, "properties": {"name": "Kukkarahalli Lake", "state": "Karnataka", "type": "Freshwater"}},
    {"type": "Feature", "geometry": {"type": "Point", "coordinates": [78.11, 27.25]}, "properties": {"name": "Sur Sarovar", "state": "Uttar Pradesh", "type": "Artificial"}},
    {"type": "Feature", "geometry": {"type": "Point", "coordinates": [72.11, 22.80]}, "properties": {"name": "Nalsarovar Lake", "state": "Gujarat", "type": "Freshwater"}},
    {"type": "Feature", "geometry": {"type": "Point", "coordinates": [72.70, 24.59]}, "properties": {"name": "Nakki Lake", "state": "Rajasthan", "type": "Freshwater"}},
    {"type": "Feature", "geometry": {"type": "Point", "coordinates": [77.62, 12.91]}, "properties": {"name": "Bellandur Lake", "state": "Karnataka", "type": "Freshwater"}},
    {"type": "Feature", "geometry": {"type": "Point", "coordinates": [85.88, 25.63]}, "properties": {"name": "Kanwar Lake", "state": "Bihar", "type": "Oxbow"}},
    {"type": "Feature", "geometry": {"type": "Point", "coordinates": [74.92, 31.17]}, "properties": {"name": "Harike Lake", "state": "Punjab", "type": "Artificial"}},
    {"type": "Feature", "geometry": {"type": "Point", "coordinates": [73.88, 25.07]}, "properties": {"name": "Rajsamand Lake", "state": "Rajasthan", "type": "Artificial"}},
    {"type": "Feature", "geometry": {"type": "Point", "coordinates": [75.87, 22.68]}, "properties": {"name": "Sirpur Lake", "state": "Madhya Pradesh", "type": "Freshwater"}},
    {"type": "Feature", "geometry": {"type": "Point", "coordinates": [79.16, 21.15]}, "properties": {"name": "Futala Lake", "state": "Maharashtra", "type": "Artificial"}},
    {"type": "Feature", "geometry": {"type": "Point", "coordinates": [77.46, 32.28]}, "properties": {"name": "Chandra Taal", "state": "Himachal Pradesh", "type": "Freshwater"}},
    {"type": "Feature", "geometry": {"type": "Point", "coordinates": [78.44, 30.22]}, "properties": {"name": "Tehri Dam Reservoir", "state": "Uttarakhand", "type": "Artificial"}},
    {"type": "Feature", "geometry": {"type": "Point", "coordinates": [88.64, 28.03]}, "properties": {"name": "Cholamu Lake", "state": "Sikkim", "type": "High Altitude"}},
    {"type": "Feature", "geometry": {"type": "Point", "coordinates": [75.14, 32.69]}, "properties": {"name": "Mansar Lake", "state": "Jammu & Kashmir", "type": "Freshwater"}},
    {"type": "Feature", "geometry": {"type": "Point", "coordinates": [74.92, 26.48]}, "properties": {"name": "Pushkar Lake", "state": "Rajasthan", "type": "Sacred"}},
    {"type": "Feature", "geometry": {"type": "Point", "coordinates": [70.66, 23.67]}, "properties": {"name": "Narayan Sarovar", "state": "Gujarat", "type": "Sacred"}},
    {"type": "Feature", "geometry": {"type": "Point", "coordinates": [76.59, 10.52]}, "properties": {"name": "Pookode Lake", "state": "Kerala", "type": "Freshwater"}},
    {"type": "Feature", "geometry": {"type": "Point", "coordinates": [76.71, 11.41]}, "properties": {"name": "Ooty Lake", "state": "Tamil Nadu", "type": "Artificial"}},
    {"type": "Feature", "geometry": {"type": "Point", "coordinates": [77.48, 10.23]}, "properties": {"name": "Kodaikanal Lake", "state": "Tamil Nadu", "type": "Artificial"}},
    {"type": "Feature", "geometry": {"type": "Point", "coordinates": [79.74, 11.34]}, "properties": {"name": "Veeranam Lake", "state": "Tamil Nadu", "type": "Artificial"}},
    {"type": "Feature", "geometry": {"type": "Point", "coordinates": [78.23, 30.26]}, "properties": {"name": "Roopkund", "state": "Uttarakhand", "type": "Glacial"}},
    {"type": "Feature", "geometry": {"type": "Point", "coordinates": [82.52, 24.16]}, "properties": {"name": "Rihand Reservoir", "state": "Uttar Pradesh", "type": "Artificial"}}
  ]
}
